{
  "foobar0": {
    "name": "foobar",
    "city": "foobar",
    "country": "foobar",
    "alias": [],
    "regions": [],
    "coordinates": [
      0,
      0
    ],
    "province": "foobar",
    "timezone": "foobar",
    "unlocs": [
      "123"
    ],
    "code": "foobar"
  },
  "foobar1": {
    "name": "foobar",
    "coordinates": [
      0,
      0
    ],
    "city": "foobar",
    "province": "foobar",
    "country": "foobar",
    "alias": [],
    "regions": [],
    "timezone": "foobar",
    "unlocs": [
      "123"
    ],
    "code": "foobar"
  },
  "foobar3": {
    "name": "foobar",
    "coordinates": [
      0,
      0
    ],
    "city": "foobar",
    "province": "foobar",
    "country": "foobar",
    "alias": [],
    "regions": [],
    "timezone": "foobar",
    "unlocs": [
      "123"
    ],
    "code": "foobar"
  },
  "foobar4": {
    "name": "foobar",
    "coordinates": [
      0,
      0
    ],
    "city": "foobar",
    "province": "foobar",
    "country": "foobar",
    "alias": [],
    "regions": [],
    "timezone": "foobar",
    "unlocs": [
      "123"
    ],
    "code": "foobar"
  },
  "foobar5": {
    "name": "foobar",
    "coordinates": [
      0,
      0
    ],
    "city": "foobar",
    "province": "foobar",
    "country": "foobar",
    "alias": [],
    "regions": [],
    "timezone": "foobar",
    "unlocs": [
      "123"
    ],
    "code": "foobar"
  }
}
